% program   : RTKPOST ver.demo5 b33e
% inp file  : C:\users\solutop\Scrivania\novaretti\1-rover\20090091\20090091.21O
% inp file  : C:\users\solutop\Scrivania\novaretti\2-master\pord009i.21o\pord009i.21o
% inp file  : C:\users\solutop\Scrivania\novaretti\2-master\pord009i.21o\pord009i.21n
% obs start : 2021/01/09 08:28:13.0 GPST (week2139 548893.0s)
% obs end   : 2021/01/09 08:58:32.0 GPST (week2139 550712.0s)
% pos mode  : static
% freqs     : L1+L2/E5b
% solution  : combined
% elev mask : 15.0 deg
% dynamics  : on
% tidecorr  : off
% ionos opt : broadcast
% tropo opt : saastamoinen
% ephemeris : broadcast
% amb res   : fix and hold
% val thres : 3.0
% antenna1  :                       ( 0.0000  0.0000  0.0000)
% antenna2  :                       ( 0.0000  0.0000  0.0000)
% ref pos   : 45.956772530   12.661200750    81.7680
%
% (lat/lon/height=WGS84/ellipsoidal,Q=1:fix,2:float,3:sbas,4:dgps,5:single,6:ppp,ns=# of satellites)
%  GPST                  latitude(deg) longitude(deg)  height(m)   Q  ns   sdn(m)   sde(m)   sdu(m)  sdne(m)  sdeu(m)  sdun(m) age(s)  ratio
2021/01/09 08:28:13.000   45.809591722   12.440169726    63.7871   1   8   0.0003   0.0002   0.0006  -0.0001  -0.0002   0.0002   0.00   22.6
2021/01/09 08:28:14.000   45.809591722   12.440169726    63.7870   1   8   0.0003   0.0002   0.0006  -0.0001  -0.0002   0.0002   0.00   22.5
2021/01/09 08:28:15.000   45.809591722   12.440169727    63.7870   1   8   0.0003   0.0002   0.0006  -0.0001  -0.0002   0.0002   0.00   22.5
2021/01/09 08:28:16.000   45.809591722   12.440169727    63.7870   1   8   0.0003   0.0002   0.0006  -0.0001  -0.0002   0.0002   0.00   22.4
2021/01/09 08:28:17.000   45.809591722   12.440169727    63.7870   1   8   0.0003   0.0002   0.0006  -0.0001  -0.0002   0.0002   0.00   22.4
2021/01/09 08:28:18.000   45.809591722   12.440169727    63.7869   1   8   0.0003   0.0002   0.0006  -0.0001  -0.0002   0.0002   0.00   22.4
2021/01/09 08:28:19.000   45.809591722   12.440169728    63.7869   1   8   0.0003   0.0002   0.0006  -0.0001  -0.0002   0.0002   0.00   22.4
2021/01/09 08:28:20.000   45.809591722   12.440169728    63.7869   1   8   0.0003   0.0002   0.0006  -0.0001  -0.0002   0.0002   0.00   22.4
2021/01/09 08:28:21.000   45.809591722   12.440169728    63.7869   1   8   0.0003   0.0002   0.0006  -0.0001  -0.0002   0.0002   0.00   22.3
2021/01/09 08:28:22.000   45.809591721   12.440169728    63.7868   1   8   0.0003   0.0002   0.0006  -0.0001  -0.0002   0.0002   0.00   22.3
2021/01/09 08:28:23.000   45.809591721   12.440169728    63.7868   1   8   0.0003   0.0002   0.0006  -0.0001  -0.0002   0.0002   0.00   22.3
2021/01/09 08:28:24.000   45.809591721   12.440169729    63.7868   1   8   0.0003   0.0002   0.0006  -0.0001  -0.0002   0.0002   0.00   22.3
2021/01/09 08:28:25.000   45.809591721   12.440169729    63.7867   1   8   0.0003   0.0002   0.0006  -0.0001  -0.0002   0.0002   0.00   22.2
2021/01/09 08:28:26.000   45.809591721   12.440169729    63.7867   1   8   0.0003   0.0002   0.0006  -0.0001  -0.0002   0.0002   0.00   22.2
2021/01/09 08:28:27.000   45.809591721   12.440169729    63.7867   1   8   0.0003   0.0002   0.0006  -0.0001  -0.0002   0.0002   0.00   22.2
2021/01/09 08:28:28.000   45.809591721   12.440169729    63.7866   1   8   0.0003   0.0002   0.0006  -0.0001  -0.0002   0.0002   0.00   22.2
2021/01/09 08:28:29.000   45.809591721   12.440169730    63.7866   1   8   0.0003   0.0002   0.0006  -0.0001  -0.0002   0.0002   0.00   22.1
2021/01/09 08:28:30.000   45.809591721   12.440169730    63.7866   1   8   0.0003   0.0002   0.0006  -0.0001  -0.0002   0.0002   0.00   22.1
2021/01/09 08:28:31.000   45.809591721   12.440169730    63.7865   1   8   0.0003   0.0002   0.0006  -0.0001  -0.0002   0.0002   0.00   22.1
2021/01/09 08:28:32.000   45.809591721   12.440169730    63.7865   1   8   0.0003   0.0002   0.0006  -0.0001  -0.0002   0.0002   0.00   22.1
2021/01/09 08:28:33.000   45.809591721   12.440169730    63.7865   1   8   0.0003   0.0002   0.0006  -0.0001  -0.0002   0.0002   0.00   22.0
2021/01/09 08:28:34.000   45.809591721   12.440169731    63.7864   1   8   0.0003   0.0002   0.0006  -0.0001  -0.0002   0.0002   0.00   22.0
2021/01/09 08:28:35.000   45.809591721   12.440169731    63.7864   1   8   0.0003   0.0002   0.0006  -0.0001  -0.0002   0.0002   0.00   22.0
2021/01/09 08:28:36.000   45.809591721   12.440169731    63.7864   1   8   0.0003   0.0002   0.0006  -0.0001  -0.0002   0.0002   0.00   22.0
2021/01/09 08:28:37.000   45.809591721   12.440169731    63.7863   1   7   0.0003   0.0002   0.0006  -0.0001  -0.0002   0.0002   0.00   21.9
2021/01/09 08:28:38.000   45.809591721   12.440169732    63.7863   1   7   0.0003   0.0002   0.0006  -0.0001  -0.0002   0.0002   0.00   21.9
2021/01/09 08:28:39.000   45.809591721   12.440169732    63.7863   1   7   0.0003   0.0002   0.0006  -0.0001  -0.0002   0.0002   0.00   21.9
2021/01/09 08:28:40.000   45.809591721   12.440169732    63.7862   1   7   0.0003   0.0002   0.0006  -0.0001  -0.0002   0.0002   0.00   21.8
2021/01/09 08:28:41.000   45.809591721   12.440169732    63.7862   1   7   0.0003   0.0002   0.0006  -0.0001  -0.0002   0.0002   0.00   21.8
2021/01/09 08:28:42.000   45.809591721   12.440169732    63.7862   1   7   0.0003   0.0002   0.0006  -0.0001  -0.0002   0.0002   0.00   21.7
2021/01/09 08:28:43.000   45.809591722   12.440169727    63.7871   1   7   0.0003   0.0002   0.0006  -0.0001  -0.0002   0.0002   0.00    6.9
2021/01/09 08:28:44.000   45.809591722   12.440169727    63.7871   1   7   0.0003   0.0002   0.0006  -0.0001  -0.0002   0.0002   0.00    6.9
2021/01/09 08:28:45.000   45.809591722   12.440169727    63.7871   1   7   0.0003   0.0002   0.0006  -0.0001  -0.0002   0.0002   0.00    6.9
2021/01/09 08:28:46.000   45.809591722   12.440169727    63.7871   1   7   0.0003   0.0002   0.0006  -0.0001  -0.0002   0.0002   0.00    6.9
2021/01/09 08:28:47.000   45.809591722   12.440169727    63.7871   1   7   0.0003   0.0002   0.0006  -0.0001  -0.0002   0.0002   0.00    6.9
2021/01/09 08:28:48.000   45.809591722   12.440169727    63.7871   1   7   0.0003   0.0002   0.0006  -0.0001  -0.0002   0.0002   0.00    6.9
2021/01/09 08:28:49.000   45.809591722   12.440169727    63.7871   1   7   0.0003   0.0002   0.0006  -0.0001  -0.0002   0.0002   0.00    6.9
2021/01/09 08:28:50.000   45.809591722   12.440169727    63.7871   1   7   0.0003   0.0002   0.0006  -0.0001  -0.0002   0.0002   0.00    6.9
2021/01/09 08:28:51.000   45.809591722   12.440169727    63.7871   1   7   0.0003   0.0002   0.0006  -0.0001  -0.0002   0.0002   0.00    6.8
2021/01/09 08:28:52.000   45.809591722   12.440169727    63.7871   1   7   0.0003   0.0002   0.0006  -0.0001  -0.0002   0.0002   0.00    6.8
2021/01/09 08:28:53.000   45.809591722   12.440169727    63.7870   1   7   0.0003   0.0002   0.0006  -0.0001  -0.0002   0.0002   0.00    6.8
2021/01/09 08:28:54.000   45.809591722   12.440169727    63.7871   1   7   0.0003   0.0002   0.0006  -0.0001  -0.0002   0.0002   0.00    6.8
2021/01/09 08:28:55.000   45.809591722   12.440169727    63.7870   1   7   0.0003   0.0002   0.0006  -0.0001  -0.0002   0.0002   0.00    6.8
2021/01/09 08:28:56.000   45.809591722   12.440169728    63.7870   1   7   0.0003   0.0002   0.0006  -0.0001  -0.0002   0.0002   0.00    6.8
2021/01/09 08:28:57.000   45.809591722   12.440169728    63.7870   1   7   0.0003   0.0002   0.0006  -0.0001  -0.0002   0.0002   0.00    6.8
2021/01/09 08:28:58.000   45.809591722   12.440169728    63.7870   1   7   0.0003   0.0002   0.0006  -0.0001  -0.0002   0.0002   0.00    6.7
2021/01/09 08:28:59.000   45.809591722   12.440169728    63.7870   1   7   0.0003   0.0002   0.0006  -0.0001  -0.0002   0.0002   0.00    6.7
2021/01/09 08:29:00.000   45.809591722   12.440169728    63.7870   1   7   0.0003   0.0002   0.0006  -0.0001  -0.0002   0.0002   0.00    6.7
2021/01/09 08:29:01.000   45.809591722   12.440169728    63.7870   1   7   0.0003   0.0002   0.0006  -0.0001  -0.0002   0.0002   0.00    6.7
2021/01/09 08:29:02.000   45.809591722   12.440169728    63.7870   1   7   0.0003   0.0002   0.0006  -0.0001  -0.0002   0.0002   0.00    6.7
2021/01/09 08:29:03.000   45.809591722   12.440169728    63.7870   1   7   0.0003   0.0002   0.0006  -0.0001  -0.0002   0.0002   0.00    9.9
2021/01/09 08:29:04.000   45.809591722   12.440169728    63.7870   1   7   0.0003   0.0002   0.0006  -0.0001  -0.0002   0.0002   0.00   12.3
2021/01/09 08:29:05.000   45.809591722   12.440169728    63.7870   1   7   0.0003   0.0002   0.0006  -0.0001  -0.0002   0.0002   0.00   14.6
2021/01/09 08:29:06.000   45.809591722   12.440169728    63.7870   1   7   0.0003   0.0002   0.0006  -0.0001  -0.0002   0.0002   0.00   16.8
2021/01/09 08:29:07.000   45.809591722   12.440169728    63.7870   1   7   0.0003   0.0002   0.0006  -0.0001  -0.0002   0.0002   0.00   17.4
2021/01/09 08:29:08.000   45.809591722   12.440169728    63.7870   1   7   0.0003   0.0002   0.0006  -0.0001  -0.0002   0.0002   0.00   18.0
2021/01/09 08:29:09.000   45.809591722   12.440169728    63.7870   1   7   0.0003   0.0002   0.0006  -0.0001  -0.0002   0.0002   0.00   18.5
2021/01/09 08:29:10.000   45.809591722   12.440169728    63.7870   1   7   0.0003   0.0002   0.0006  -0.0001  -0.0002   0.0002   0.00   19.0
2021/01/09 08:29:11.000   45.809591722   12.440169728    63.7870   1   7   0.0003   0.0002   0.0006  -0.0001  -0.0002   0.0002   0.00   19.4
2021/01/09 08:29:12.000   45.809591722   12.440169728    63.7870   1   7   0.0003   0.0002   0.0006  -0.0001  -0.0002   0.0002   0.00   19.8
2021/01/09 08:29:13.000   45.809591722   12.440169728    63.7870   1   7   0.0003   0.0002   0.0006  -0.0001  -0.0002   0.0002   0.00   20.3
2021/01/09 08:29:14.000   45.809591722   12.440169728    63.7870   1   7   0.0003   0.0002   0.0006  -0.0001  -0.0002   0.0002   0.00   20.7
2021/01/09 08:29:15.000   45.809591722   12.440169728    63.7870   1   7   0.0003   0.0002   0.0006  -0.0001  -0.0002   0.0002   0.00   21.1
2021/01/09 08:29:16.000   45.809591722   12.440169728    63.7870   1   7   0.0003   0.0002   0.0006  -0.0001  -0.0002   0.0002   0.00   21.5
2021/01/09 08:29:17.000   45.809591722   12.440169728    63.7870   1   7   0.0003   0.0002   0.0006  -0.0001  -0.0002   0.0002   0.00   21.9
2021/01/09 08:29:18.000   45.809591722   12.440169728    63.7870   1   7   0.0003   0.0002   0.0006  -0.0001  -0.0002   0.0002   0.00   22.0
2021/01/09 08:29:19.000   45.809591722   12.440169728    63.7869   1   7   0.0003   0.0002   0.0005  -0.0001  -0.0002   0.0002   0.00   22.1
2021/01/09 08:29:20.000   45.809591722   12.440169728    63.7869   1   7   0.0003   0.0002   0.0005  -0.0001  -0.0002   0.0002   0.00   22.1
2021/01/09 08:29:21.000   45.809591722   12.440169729    63.7869   1   7   0.0003   0.0002   0.0005  -0.0001  -0.0002   0.0002   0.00   22.2
2021/01/09 08:29:22.000   45.809591722   12.440169729    63.7869   1   7   0.0003   0.0002   0.0005  -0.0001  -0.0002   0.0002   0.00   22.3
2021/01/09 08:29:23.000   45.809591722   12.440169729    63.7869   1   7   0.0003   0.0002   0.0005  -0.0001  -0.0002   0.0002   0.00   22.4
2021/01/09 08:29:24.000   45.809591722   12.440169729    63.7869   1   7   0.0003   0.0002   0.0005  -0.0001  -0.0002   0.0002   0.00   22.4
2021/01/09 08:29:25.000   45.809591722   12.440169729    63.7869   1   7   0.0003   0.0002   0.0005  -0.0001  -0.0002   0.0002   0.00   22.4
2021/01/09 08:29:26.000   45.809591722   12.440169729    63.7869   1   7   0.0003   0.0002   0.0005  -0.0001  -0.0002   0.0002   0.00   22.4
2021/01/09 08:29:27.000   45.809591722   12.440169729    63.7869   1   7   0.0003   0.0002   0.0005  -0.0001  -0.0002   0.0002   0.00   22.5
2021/01/09 08:29:28.000   45.809591722   12.440169729    63.7869   1   7   0.0003   0.0002   0.0005  -0.0001  -0.0002   0.0002   0.00   22.5
2021/01/09 08:29:29.000   45.809591722   12.440169729    63.7869   1   7   0.0003   0.0002   0.0005  -0.0001  -0.0002   0.0002   0.00   22.4
2021/01/09 08:29:30.000   45.809591722   12.440169729    63.7869   1   7   0.0003   0.0002   0.0005  -0.0001  -0.0002   0.0002   0.00   22.4
2021/01/09 08:29:31.000   45.809591722   12.440169729    63.7869   1   7   0.0003   0.0002   0.0005  -0.0001  -0.0002   0.0002   0.00   22.3
2021/01/09 08:29:32.000   45.809591722   12.440169729    63.7869   1   7   0.0003   0.0002   0.0005  -0.0001  -0.0002   0.0002   0.00   22.3
2021/01/09 08:29:33.000   45.809591722   12.440169729    63.7869   1   7   0.0003   0.0002   0.0005  -0.0001  -0.0002   0.0002   0.00   22.2
2021/01/09 08:29:34.000   45.809591722   12.440169729    63.7869   1   7   0.0003   0.0002   0.0005  -0.0001  -0.0002   0.0002   0.00   22.2
2021/01/09 08:29:35.000   45.809591722   12.440169729    63.7869   1   7   0.0003   0.0002   0.0005  -0.0001  -0.0002   0.0002   0.00   22.2
2021/01/09 08:29:36.000   45.809591722   12.440169729    63.7869   1   7   0.0003   0.0002   0.0005  -0.0001  -0.0002   0.0002   0.00   22.2
2021/01/09 08:29:37.000   45.809591722   12.440169729    63.7869   1   7   0.0003   0.0002   0.0005  -0.0001  -0.0002   0.0002   0.00   22.2
2021/01/09 08:29:38.000   45.809591722   12.440169729    63.7869   1   7   0.0003   0.0002   0.0005  -0.0001  -0.0002   0.0002   0.00   22.1
2021/01/09 08:29:39.000   45.809591723   12.440169729    63.7869   1   7   0.0003   0.0002   0.0005  -0.0001  -0.0002   0.0002   0.00   22.1
2021/01/09 08:29:40.000   45.809591723   12.440169729    63.7869   1   7   0.0003   0.0002   0.0005  -0.0001  -0.0002   0.0002   0.00   22.1
2021/01/09 08:29:41.000   45.809591723   12.440169730    63.7869   1   7   0.0003   0.0002   0.0005  -0.0001  -0.0002   0.0002   0.00   22.1
2021/01/09 08:29:42.000   45.809591722   12.440169730    63.7869   1   7   0.0003   0.0002   0.0005  -0.0001  -0.0002   0.0002   0.00   22.0
2021/01/09 08:29:43.000   45.809591723   12.440169730    63.7868   1   7   0.0003   0.0002   0.0005  -0.0001  -0.0002   0.0002   0.00   21.9
2021/01/09 08:29:44.000   45.809591723   12.440169730    63.7868   1   7   0.0003   0.0002   0.0005  -0.0001  -0.0002   0.0002   0.00   22.0
2021/01/09 08:29:45.000   45.809591723   12.440169730    63.7868   1   7   0.0003   0.0002   0.0005  -0.0001  -0.0002   0.0002   0.00   21.9
2021/01/09 08:29:46.000   45.809591723   12.440169730    63.7868   1   7   0.0003   0.0002   0.0005  -0.0001  -0.0002   0.0002   0.00   21.8
2021/01/09 08:29:47.000   45.809591722   12.440169730    63.7868   1   7   0.0003   0.0002   0.0005  -0.0001  -0.0002   0.0002   0.00   21.8
2021/01/09 08:29:48.000   45.809591723   12.440169730    63.7868   1   7   0.0003   0.0002   0.0005  -0.0001  -0.0002   0.0002   0.00   21.8
2021/01/09 08:29:49.000   45.809591723   12.440169730    63.7868   1   7   0.0003   0.0002   0.0005  -0.0001  -0.0002   0.0002   0.00   21.7
2021/01/09 08:29:50.000   45.809591722   12.440169730    63.7868   1   7   0.0003   0.0002   0.0005  -0.0001  -0.0002   0.0002   0.00   21.7
2021/01/09 08:29:51.000   45.809591723   12.440169730    63.7868   1   7   0.0003   0.0002   0.0005  -0.0001  -0.0002   0.0002   0.00   21.7
2021/01/09 08:29:52.000   45.809591723   12.440169730    63.7868   1   7   0.0003   0.0002   0.0005  -0.0001  -0.0002   0.0002   0.00   21.6
2021/01/09 08:29:53.000   45.809591723   12.440169730    63.7868   1   7   0.0003   0.0002   0.0005  -0.0001  -0.0002   0.0002   0.00   21.6
2021/01/09 08:29:54.000   45.809591723   12.440169730    63.7868   1   7   0.0003   0.0002   0.0005  -0.0001  -0.0002   0.0002   0.00   21.6
2021/01/09 08:29:55.000   45.809591723   12.440169730    63.7868   1   7   0.0003   0.0002   0.0005  -0.0001  -0.0002   0.0002   0.00   21.5
2021/01/09 08:29:56.000   45.809591723   12.440169730    63.7868   1   7   0.0003   0.0002   0.0005  -0.0001  -0.0002   0.0002   0.00   21.5
2021/01/09 08:29:57.000   45.809591723   12.440169730    63.7868   1   7   0.0003   0.0002   0.0005  -0.0001  -0.0002   0.0002   0.00   21.5
2021/01/09 08:29:58.000   45.809591722   12.440169730    63.7868   1   7   0.0003   0.0002   0.0005  -0.0001  -0.0002   0.0002   0.00   21.4
2021/01/09 08:29:59.000   45.809591723   12.440169731    63.7868   1   7   0.0003   0.0002   0.0005  -0.0001  -0.0002   0.0002   0.00   21.4
2021/01/09 08:30:00.000   45.809591723   12.440169731    63.7868   1   7   0.0003   0.0002   0.0005  -0.0001  -0.0002   0.0002   0.00   21.3
2021/01/09 08:30:01.000   45.809591723   12.440169731    63.7867   1   7   0.0002   0.0002   0.0005  -0.0001  -0.0002   0.0002   0.00   21.2
2021/01/09 08:30:02.000   45.809591723   12.440169731    63.7867   1   7   0.0002   0.0002   0.0005  -0.0001  -0.0002   0.0002   0.00   21.1
2021/01/09 08:30:03.000   45.809591723   12.440169731    63.7867   1   7   0.0002   0.0002   0.0005  -0.0001  -0.0002   0.0002   0.00   21.0
2021/01/09 08:30:04.000   45.809591723   12.440169731    63.7867   1   7   0.0002   0.0002   0.0005  -0.0001  -0.0002   0.0002   0.00   20.9
2021/01/09 08:30:05.000   45.809591723   12.440169731    63.7867   1   7   0.0002   0.0002   0.0005  -0.0001  -0.0002   0.0002   0.00   20.9
2021/01/09 08:30:06.000   45.809591723   12.440169731    63.7867   1   7   0.0002   0.0002   0.0005  -0.0001  -0.0002   0.0002   0.00   20.9
2021/01/09 08:30:07.000   45.809591723   12.440169731    63.7867   1   7   0.0002   0.0002   0.0005  -0.0001  -0.0002   0.0002   0.00   20.8
2021/01/09 08:30:08.000   45.809591723   12.440169731    63.7867   1   7   0.0002   0.0002   0.0005  -0.0001  -0.0002   0.0002   0.00   20.8
2021/01/09 08:30:09.000   45.809591723   12.440169731    63.7867   1   7   0.0002   0.0002   0.0005  -0.0001  -0.0002   0.0002   0.00   20.8
2021/01/09 08:30:10.000   45.809591723   12.440169731    63.7867   1   7   0.0002   0.0002   0.0005  -0.0001  -0.0002   0.0002   0.00   20.8
2021/01/09 08:30:11.000   45.809591723   12.440169731    63.7867   1   7   0.0002   0.0002   0.0005  -0.0001  -0.0002   0.0002   0.00   20.7
2021/01/09 08:30:12.000   45.809591723   12.440169731    63.7867   1   7   0.0002   0.0002   0.0005  -0.0001  -0.0002   0.0002   0.00   20.7
2021/01/09 08:30:13.000   45.809591723   12.440169731    63.7867   1   7   0.0002   0.0002   0.0005  -0.0001  -0.0002   0.0002   0.00   20.7
2021/01/09 08:30:14.000   45.809591723   12.440169731    63.7867   1   7   0.0002   0.0002   0.0005  -0.0001  -0.0002   0.0002   0.00   20.7
2021/01/09 08:30:15.000   45.809591723   12.440169731    63.7866   1   7   0.0002   0.0002   0.0005  -0.0001  -0.0002   0.0002   0.00   20.6
2021/01/09 08:30:16.000   45.809591723   12.440169732    63.7866   1   7   0.0002   0.0002   0.0005  -0.0001  -0.0002   0.0002   0.00   20.6
2021/01/09 08:30:17.000   45.809591723   12.440169732    63.7866   1   7   0.0002   0.0002   0.0005  -0.0001  -0.0002   0.0002   0.00   20.5
2021/01/09 08:30:18.000   45.809591723   12.440169732    63.7866   1   7   0.0002   0.0002   0.0005  -0.0001  -0.0002   0.0002   0.00   20.5
2021/01/09 08:30:19.000   45.809591723   12.440169732    63.7866   1   7   0.0002   0.0002   0.0005  -0.0001  -0.0002   0.0002   0.00   20.5
2021/01/09 08:30:20.000   45.809591723   12.440169732    63.7866   1   7   0.0002   0.0002   0.0005  -0.0001  -0.0002   0.0002   0.00   20.4
2021/01/09 08:30:21.000   45.809591723   12.440169732    63.7866   1   7   0.0002   0.0002   0.0005  -0.0001  -0.0002   0.0002   0.00   20.4
2021/01/09 08:30:22.000   45.809591723   12.440169732    63.7866   1   7   0.0002   0.0002   0.0005  -0.0001  -0.0002   0.0002   0.00   20.4
2021/01/09 08:30:23.000   45.809591723   12.440169732    63.7866   1   7   0.0002   0.0002   0.0005  -0.0001  -0.0002   0.0002   0.00   20.3
2021/01/09 08:30:24.000   45.809591723   12.440169732    63.7866   1   7   0.0002   0.0002   0.0005  -0.0001  -0.0002   0.0002   0.00   20.2
2021/01/09 08:30:25.000   45.809591723   12.440169732    63.7866   1   7   0.0002   0.0002   0.0005  -0.0001  -0.0002   0.0002   0.00   20.2
2021/01/09 08:30:26.000   45.809591723   12.440169732    63.7866   1   7   0.0002   0.0002   0.0005  -0.0001  -0.0002   0.0002   0.00   20.2
2021/01/09 08:30:27.000   45.809591723   12.440169732    63.7866   1   7   0.0002   0.0002   0.0005  -0.0001  -0.0002   0.0002   0.00   20.1
2021/01/09 08:30:28.000   45.809591723   12.440169732    63.7866   1   7   0.0002   0.0002   0.0005  -0.0001  -0.0002   0.0002   0.00   20.1
2021/01/09 08:30:29.000   45.809591723   12.440169732    63.7866   1   7   0.0002   0.0002   0.0005  -0.0001  -0.0002   0.0002   0.00   20.0
2021/01/09 08:30:30.000   45.809591723   12.440169732    63.7865   1   7   0.0002   0.0002   0.0005  -0.0001  -0.0002   0.0002   0.00   20.0
2021/01/09 08:30:31.000   45.809591723   12.440169732    63.7865   1   7   0.0002   0.0002   0.0005  -0.0001  -0.0002   0.0002   0.00   19.9
2021/01/09 08:30:32.000   45.809591723   12.440169733    63.7865   1   7   0.0002   0.0002   0.0005  -0.0001  -0.0002   0.0002   0.00   19.9
2021/01/09 08:30:33.000   45.809591723   12.440169733    63.7865   1   7   0.0002   0.0002   0.0005  -0.0001  -0.0002   0.0002   0.00   19.9
2021/01/09 08:30:34.000   45.809591722   12.440169733    63.7865   1   7   0.0002   0.0002   0.0005  -0.0001  -0.0002   0.0002   0.00   19.8
2021/01/09 08:30:35.000   45.809591722   12.440169733    63.7865   1   7   0.0002   0.0002   0.0005  -0.0001  -0.0002   0.0002   0.00   19.7
2021/01/09 08:30:36.000   45.809591722   12.440169733    63.7865   1   7   0.0002   0.0002   0.0005  -0.0001  -0.0002   0.0002   0.00   19.7
2021/01/09 08:30:37.000   45.809591722   12.440169733    63.7865   1   7   0.0002   0.0002   0.0005  -0.0001  -0.0002   0.0002   0.00   19.6
2021/01/09 08:30:38.000   45.809591722   12.440169733    63.7865   1   7   0.0002   0.0002   0.0005  -0.0001  -0.0002   0.0002   0.00   19.6
2021/01/09 08:30:39.000   45.809591722   12.440169733    63.7865   1   7   0.0002   0.0002   0.0005  -0.0001  -0.0002   0.0002   0.00   19.5
2021/01/09 08:30:40.000   45.809591722   12.440169733    63.7865   1   7   0.0002   0.0002   0.0005  -0.0001  -0.0002   0.0002   0.00   19.5
2021/01/09 08:30:41.000   45.809591722   12.440169733    63.7864   1   7   0.0002   0.0002   0.0005  -0.0001  -0.0002   0.0002   0.00   19.5
2021/01/09 08:30:42.000   45.809591723   12.440169733    63.7865   1   7   0.0002   0.0002   0.0005  -0.0001  -0.0002   0.0002   0.00   19.5
2021/01/09 08:30:43.000   45.809591723   12.440169733    63.7864   1   7   0.0002   0.0002   0.0005  -0.0001  -0.0002   0.0002   0.00   19.4
2021/01/09 08:30:44.000   45.809591722   12.440169733    63.7864   1   7   0.0002   0.0002   0.0005  -0.0001  -0.0002   0.0002   0.00   19.4
2021/01/09 08:30:45.000   45.809591723   12.440169733    63.7864   1   7   0.0002   0.0002   0.0005  -0.0001  -0.0002   0.0002   0.00   19.4
2021/01/09 08:30:46.000   45.809591723   12.440169733    63.7864   1   7   0.0002   0.0002   0.0005  -0.0001  -0.0002   0.0002   0.00   19.3
2021/01/09 08:30:47.000   45.809591722   12.440169734    63.7864   1   7   0.0002   0.0002   0.0005  -0.0001  -0.0002   0.0002   0.00   19.3
2021/01/09 08:30:48.000   45.809591723   12.440169734    63.7864   1   7   0.0002   0.0002   0.0005  -0.0001  -0.0002   0.0002   0.00   19.3
2021/01/09 08:30:49.000   45.809591722   12.440169734    63.7864   1   7   0.0002   0.0002   0.0005  -0.0001  -0.0002   0.0002   0.00   19.4
2021/01/09 08:30:50.000   45.809591723   12.440169734    63.7864   1   7   0.0002   0.0002   0.0005  -0.0001  -0.0002   0.0002   0.00   19.4
2021/01/09 08:30:51.000   45.809591723   12.440169734    63.7864   1   7   0.0002   0.0002   0.0005  -0.0001  -0.0002   0.0002   0.00   19.4
2021/01/09 08:30:52.000   45.809591723   12.440169734    63.7864   1   7   0.0002   0.0002   0.0005  -0.0001  -0.0002   0.0002   0.00   19.4
2021/01/09 08:30:53.000   45.809591722   12.440169734    63.7864   1   7   0.0002   0.0002   0.0005  -0.0001  -0.0002   0.0002   0.00   19.5
2021/01/09 08:30:54.000   45.809591723   12.440169734    63.7864   1   7   0.0002   0.0002   0.0005  -0.0001  -0.0002   0.0002   0.00   19.5
2021/01/09 08:30:55.000   45.809591723   12.440169734    63.7864   1   7   0.0002   0.0002   0.0005  -0.0001  -0.0002   0.0002   0.00   19.5
2021/01/09 08:30:56.000   45.809591723   12.440169734    63.7863   1   7   0.0002   0.0002   0.0005  -0.0001  -0.0002   0.0002   0.00   19.5
2021/01/09 08:30:57.000   45.809591723   12.440169734    63.7863   1   7   0.0002   0.0002   0.0005  -0.0001  -0.0002   0.0002   0.00   19.6
2021/01/09 08:30:58.000   45.809591723   12.440169734    63.7863   1   7   0.0002   0.0002   0.0005  -0.0001  -0.0002   0.0002   0.00   19.6
2021/01/09 08:30:59.000   45.809591723   12.440169734    63.7863   1   7   0.0002   0.0002   0.0005  -0.0001  -0.0002   0.0002   0.00   19.6
2021/01/09 08:31:00.000   45.809591723   12.440169734    63.7863   1   7   0.0002   0.0002   0.0005  -0.0001  -0.0002   0.0002   0.00   19.6
2021/01/09 08:31:01.000   45.809591723   12.440169734    63.7863   1   7   0.0002   0.0002   0.0005  -0.0001  -0.0002   0.0002   0.00   19.6
2021/01/09 08:31:02.000   45.809591723   12.440169735    63.7863   1   7   0.0002   0.0002   0.0005  -0.0001  -0.0002   0.0002   0.00   19.7
2021/01/09 08:31:03.000   45.809591723   12.440169735    63.7863   1   7   0.0002   0.0002   0.0005  -0.0001  -0.0002   0.0002   0.00   19.7
2021/01/09 08:31:04.000   45.809591723   12.440169735    63.7863   1   7   0.0002   0.0002   0.0005  -0.0001  -0.0002   0.0002   0.00   19.7
2021/01/09 08:31:05.000   45.809591723   12.440169735    63.7863   1   7   0.0002   0.0002   0.0005  -0.0001  -0.0002   0.0002   0.00   19.7
2021/01/09 08:31:06.000   45.809591723   12.440169735    63.7863   1   7   0.0002   0.0002   0.0005  -0.0001  -0.0002   0.0002   0.00   19.8
2021/01/09 08:31:07.000   45.809591723   12.440169735    63.7863   1   7   0.0002   0.0002   0.0005  -0.0001  -0.0002   0.0002   0.00   19.8
2021/01/09 08:31:08.000   45.809591723   12.440169735    63.7863   1   7   0.0002   0.0002   0.0005  -0.0001  -0.0002   0.0002   0.00   19.8
2021/01/09 08:31:09.000   45.809591723   12.440169735    63.7862   1   7   0.0002   0.0002   0.0005  -0.0001  -0.0002   0.0002   0.00   19.8
2021/01/09 08:31:10.000   45.809591723   12.440169735    63.7862   1   7   0.0002   0.0002   0.0005  -0.0001  -0.0002   0.0002   0.00   19.9
2021/01/09 08:31:11.000   45.809591723   12.440169735    63.7862   1   7   0.0002   0.0002   0.0005  -0.0001  -0.0002   0.0002   0.00   19.9
2021/01/09 08:31:12.000   45.809591723   12.440169735    63.7862   1   7   0.0002   0.0002   0.0005  -0.0001  -0.0002   0.0002   0.00   20.0
2021/01/09 08:31:13.000   45.809591723   12.440169735    63.7862   1   7   0.0002   0.0002   0.0005  -0.0001  -0.0002   0.0002   0.00   20.0
2021/01/09 08:31:14.000   45.809591723   12.440169735    63.7862   1   7   0.0002   0.0002   0.0005  -0.0001  -0.0002   0.0002   0.00   20.0
2021/01/09 08:31:15.000   45.809591723   12.440169735    63.7862   1   7   0.0002   0.0002   0.0005  -0.0001  -0.0002   0.0002   0.00   20.0
2021/01/09 08:31:16.000   45.809591723   12.440169735    63.7862   1   7   0.0002   0.0002   0.0005  -0.0001  -0.0002   0.0002   0.00   20.0
2021/01/09 08:31:17.000   45.809591723   12.440169736    63.7862   1   7   0.0002   0.0002   0.0005  -0.0001  -0.0002   0.0002   0.00   20.1
2021/01/09 08:31:18.000   45.809591723   12.440169736    63.7862   1   7   0.0002   0.0002   0.0005  -0.0001  -0.0002   0.0002   0.00   20.1
2021/01/09 08:31:19.000   45.809591723   12.440169736    63.7862   1   7   0.0002   0.0002   0.0005  -0.0001  -0.0002   0.0002   0.00   20.1
2021/01/09 08:31:20.000   45.809591723   12.440169736    63.7862   1   7   0.0002   0.0002   0.0005  -0.0001  -0.0002   0.0002   0.00   20.1
2021/01/09 08:31:21.000   45.809591723   12.440169736    63.7862   1   7   0.0002   0.0002   0.0005  -0.0001  -0.0002   0.0002   0.00   20.2
2021/01/09 08:31:22.000   45.809591723   12.440169736    63.7862   1   7   0.0002   0.0002   0.0005  -0.0001  -0.0002   0.0002   0.00   20.2
2021/01/09 08:31:23.000   45.809591723   12.440169736    63.7861   1   7   0.0002   0.0002   0.0005  -0.0001  -0.0002   0.0002   0.00   20.2
2021/01/09 08:31:24.000   45.809591723   12.440169736    63.7861   1   7   0.0002   0.0002   0.0005  -0.0001  -0.0002   0.0002   0.00   20.2
2021/01/09 08:31:25.000   45.809591723   12.440169736    63.7861   1   7   0.0002   0.0002   0.0005  -0.0001  -0.0002   0.0002   0.00   20.1
2021/01/09 08:31:26.000   45.809591723   12.440169736    63.7861   1   7   0.0002   0.0002   0.0005  -0.0001  -0.0002   0.0002   0.00   20.2
2021/01/09 08:31:27.000   45.809591723   12.440169736    63.7861   1   7   0.0002   0.0002   0.0005  -0.0001  -0.0002   0.0002   0.00   20.2
2021/01/09 08:31:28.000   45.809591723   12.440169736    63.7861   1   7   0.0002   0.0002   0.0005  -0.0001  -0.0002   0.0002   0.00   20.2
2021/01/09 08:31:29.000   45.809591723   12.440169736    63.7861   1   7   0.0002   0.0002   0.0005  -0.0001  -0.0002   0.0002   0.00   20.2
2021/01/09 08:31:30.000   45.809591723   12.440169737    63.7861   1   7   0.0002   0.0002   0.0005  -0.0001  -0.0002   0.0002   0.00   20.2
2021/01/09 08:31:31.000   45.809591723   12.440169737    63.7861   1   7   0.0002   0.0002   0.0005  -0.0001  -0.0002   0.0002   0.00   20.2
2021/01/09 08:31:32.000   45.809591723   12.440169737    63.7861   1   7   0.0002   0.0002   0.0005  -0.0001  -0.0002   0.0002   0.00   20.2
2021/01/09 08:31:33.000   45.809591723   12.440169737    63.7861   1   7   0.0002   0.0002   0.0005  -0.0001  -0.0002   0.0002   0.00   20.2
2021/01/09 08:31:34.000   45.809591723   12.440169737    63.7861   1   7   0.0002   0.0002   0.0005  -0.0001  -0.0002   0.0002   0.00   20.2
2021/01/09 08:31:35.000   45.809591723   12.440169737    63.7860   1   7   0.0002   0.0002   0.0005  -0.0001  -0.0002   0.0002   0.00   20.2
2021/01/09 08:31:36.000   45.809591723   12.440169737    63.7860   1   7   0.0002   0.0002   0.0005  -0.0001  -0.0002   0.0002   0.00   20.3
2021/01/09 08:31:37.000   45.809591723   12.440169737    63.7860   1   7   0.0002   0.0002   0.0005  -0.0001  -0.0002   0.0002   0.00   20.3
2021/01/09 08:31:38.000   45.809591723   12.440169737    63.7860   1   7   0.0002   0.0002   0.0005  -0.0001  -0.0002   0.0002   0.00   20.3
2021/01/09 08:31:39.000   45.809591723   12.440169737    63.7860   1   7   0.0002   0.0002   0.0005  -0.0001  -0.0002   0.0002   0.00   20.4
2021/01/09 08:31:40.000   45.809591723   12.440169737    63.7860   1   7   0.0002   0.0002   0.0005  -0.0001  -0.0002   0.0002   0.00   20.5
2021/01/09 08:31:41.000   45.809591723   12.440169737    63.7860   1   7   0.0002   0.0002   0.0005  -0.0001  -0.0002   0.0002   0.00   20.5
2021/01/09 08:31:42.000   45.809591723   12.440169737    63.7860   1   7   0.0002   0.0002   0.0005  -0.0001  -0.0002   0.0002   0.00   20.6
2021/01/09 08:31:43.000   45.809591723   12.440169738    63.7860   1   7   0.0002   0.0002   0.0005  -0.0001  -0.0002   0.0002   0.00   20.6
2021/01/09 08:31:44.000   45.809591723   12.440169738    63.7860   1   7   0.0002   0.0002   0.0005  -0.0001  -0.0002   0.0002   0.00   20.7
2021/01/09 08:31:45.000   45.809591723   12.440169738    63.7860   1   7   0.0002   0.0002   0.0005  -0.0001  -0.0002   0.0002   0.00   20.7
2021/01/09 08:31:46.000   45.809591723   12.440169738    63.7860   1   7   0.0002   0.0002   0.0005  -0.0001  -0.0002   0.0002   0.00   20.8
2021/01/09 08:31:47.000   45.809591723   12.440169738    63.7860   1   7   0.0002   0.0002   0.0005  -0.0001  -0.0002   0.0002   0.00   20.8
2021/01/09 08:31:48.000   45.809591723   12.440169738    63.7859   1   7   0.0002   0.0002   0.0005  -0.0001  -0.0002   0.0002   0.00   20.9
2021/01/09 08:31:49.000   45.809591723   12.440169738    63.7859   1   7   0.0002   0.0002   0.0005  -0.0001  -0.0002   0.0002   0.00   20.9
2021/01/09 08:31:50.000   45.809591723   12.440169738    63.7859   1   7   0.0002   0.0002   0.0005  -0.0001  -0.0002   0.0002   0.00   20.9
2021/01/09 08:31:51.000   45.809591723   12.440169738    63.7859   1   7   0.0002   0.0002   0.0005  -0.0001  -0.0002   0.0002   0.00   21.0
2021/01/09 08:31:52.000   45.809591723   12.440169738    63.7859   1   7   0.0002   0.0002   0.0005  -0.0001  -0.0002   0.0002   0.00   21.0
2021/01/09 08:31:53.000   45.809591723   12.440169738    63.7859   1   7   0.0002   0.0002   0.0005  -0.0001  -0.0002   0.0002   0.00   21.1
2021/01/09 08:31:54.000   45.809591723   12.440169738    63.7859   1   7   0.0002   0.0002   0.0005  -0.0001  -0.0002   0.0002   0.00   21.1
2021/01/09 08:31:55.000   45.809591723   12.440169738    63.7859   1   7   0.0002   0.0002   0.0005  -0.0001  -0.0002   0.0002   0.00   21.2
2021/01/09 08:31:56.000   45.809591723   12.440169739    63.7859   1   7   0.0002   0.0002   0.0005  -0.0001  -0.0002   0.0002   0.00   21.2
2021/01/09 08:31:57.000   45.809591723   12.440169739    63.7859   1   7   0.0002   0.0002   0.0005  -0.0001  -0.0002   0.0002   0.00   21.3
2021/01/09 08:31:58.000   45.809591723   12.440169739    63.7859   1   7   0.0002   0.0002   0.0005  -0.0001  -0.0002   0.0002   0.00   21.3
2021/01/09 08:31:59.000   45.809591723   12.440169739    63.7859   1   7   0.0002   0.0002   0.0005  -0.0001  -0.0002   0.0002   0.00   21.3
2021/01/09 08:32:00.000   45.809591723   12.440169739    63.7859   1   7   0.0002   0.0002   0.0005  -0.0001  -0.0002   0.0002   0.00   21.4
2021/01/09 08:32:01.000   45.809591723   12.440169739    63.7858   1   7   0.0002   0.0002   0.0005  -0.0001  -0.0002   0.0002   0.00   21.4
2021/01/09 08:32:02.000   45.809591723   12.440169739    63.7858   1   7   0.0002   0.0002   0.0005  -0.0001  -0.0002   0.0002   0.00   21.4
2021/01/09 08:32:03.000   45.809591723   12.440169739    63.7858   1   7   0.0002   0.0002   0.0005  -0.0001  -0.0002   0.0002   0.00   21.5
2021/01/09 08:32:04.000   45.809591723   12.440169739    63.7858   1   7   0.0002   0.0002   0.0005  -0.0001  -0.0002   0.0002   0.00   21.5
2021/01/09 08:32:05.000   45.809591723   12.440169739    63.7858   1   7   0.0002   0.0002   0.0005  -0.0001  -0.0002   0.0002   0.00   21.6
2021/01/09 08:32:06.000   45.809591723   12.440169739    63.7858   1   7   0.0002   0.0002   0.0005  -0.0001  -0.0002   0.0002   0.00   21.6
2021/01/09 08:32:07.000   45.809591723   12.440169739    63.7858   1   7   0.0002   0.0002   0.0005  -0.0001  -0.0002   0.0002   0.00   21.7
2021/01/09 08:32:08.000   45.809591723   12.440169739    63.7858   1   7   0.0002   0.0002   0.0005  -0.0001  -0.0002   0.0002   0.00   21.7
2021/01/09 08:32:09.000   45.809591723   12.440169740    63.7858   1   7   0.0002   0.0002   0.0005  -0.0001  -0.0002   0.0002   0.00   21.7
2021/01/09 08:32:10.000   45.809591724   12.440169740    63.7858   1   7   0.0002   0.0002   0.0005  -0.0001  -0.0002   0.0002   0.00   21.8
2021/01/09 08:32:11.000   45.809591724   12.440169740    63.7858   1   7   0.0002   0.0002   0.0005  -0.0001  -0.0002   0.0002   0.00   21.8
2021/01/09 08:32:12.000   45.809591724   12.440169740    63.7858   1   7   0.0002   0.0002   0.0005  -0.0001  -0.0002   0.0002   0.00   21.9
2021/01/09 08:32:13.000   45.809591724   12.440169740    63.7857   1   7   0.0002   0.0002   0.0005  -0.0001  -0.0002   0.0002   0.00   21.9
2021/01/09 08:32:14.000   45.809591724   12.440169740    63.7857   1   7   0.0002   0.0002   0.0005  -0.0001  -0.0002   0.0002   0.00   22.0
2021/01/09 08:32:15.000   45.809591724   12.440169740    63.7857   1   7   0.0002   0.0002   0.0005  -0.0001  -0.0002   0.0002   0.00   22.0
2021/01/09 08:32:16.000   45.809591724   12.440169740    63.7857   1   7   0.0002   0.0002   0.0005  -0.0001  -0.0002   0.0002   0.00   22.0
2021/01/09 08:32:17.000   45.809591724   12.440169740    63.7857   1   7   0.0002   0.0002   0.0005  -0.0001  -0.0002   0.0002   0.00   22.0
2021/01/09 08:32:18.000   45.809591724   12.440169740    63.7857   1   7   0.0002   0.0002   0.0005  -0.0001  -0.0002   0.0002   0.00   22.1
2021/01/09 08:32:19.000   45.809591724   12.440169740    63.7857   1   7   0.0002   0.0002   0.0005  -0.0001  -0.0002   0.0002   0.00   22.1
2021/01/09 08:32:20.000   45.809591724   12.440169741    63.7857   1   7   0.0002   0.0002   0.0005  -0.0001  -0.0002   0.0002   0.00   22.2
2021/01/09 08:32:21.000   45.809591724   12.440169741    63.7857   1   7   0.0002   0.0002   0.0005  -0.0001  -0.0002   0.0002   0.00   22.2
2021/01/09 08:32:22.000   45.809591724   12.440169741    63.7857   1   7   0.0002   0.0002   0.0005  -0.0001  -0.0002   0.0002   0.00   22.3
2021/01/09 08:32:23.000   45.809591724   12.440169741    63.7857   1   7   0.0002   0.0002   0.0005  -0.0001  -0.0002   0.0002   0.00   22.3
2021/01/09 08:32:24.000   45.809591724   12.440169741    63.7856   1   7   0.0002   0.0002   0.0005  -0.0001  -0.0002   0.0002   0.00   22.4
2021/01/09 08:32:25.000   45.809591724   12.440169741    63.7856   1   7   0.0002   0.0002   0.0005  -0.0001  -0.0002   0.0002   0.00   22.4
2021/01/09 08:32:26.000   45.809591724   12.440169741    63.7856   1   7   0.0002   0.0002   0.0005  -0.0001  -0.0002   0.0002   0.00   22.5
2021/01/09 08:32:27.000   45.809591724   12.440169741    63.7856   1   7   0.0002   0.0002   0.0005  -0.0001  -0.0002   0.0002   0.00   22.5
2021/01/09 08:32:28.000   45.809591724   12.440169741    63.7856   1   7   0.0002   0.0002   0.0005  -0.0001  -0.0002   0.0002   0.00   22.6
2021/01/09 08:32:29.000   45.809591724   12.440169741    63.7856   1   7   0.0002   0.0002   0.0005  -0.0001  -0.0002   0.0002   0.00   22.6
2021/01/09 08:32:30.000   45.809591724   12.440169741    63.7856   1   7   0.0002   0.0002   0.0005  -0.0001  -0.0002   0.0002   0.00   22.7
2021/01/09 08:32:31.000   45.809591724   12.440169741    63.7856   1   7   0.0002   0.0002   0.0005  -0.0001  -0.0002   0.0002   0.00   22.7
2021/01/09 08:32:32.000   45.809591724   12.440169741    63.7856   1   7   0.0002   0.0002   0.0005  -0.0001  -0.0002   0.0002   0.00   22.8
2021/01/09 08:32:33.000   45.809591724   12.440169742    63.7856   1   7   0.0002   0.0002   0.0005  -0.0001  -0.0002   0.0002   0.00   22.8
2021/01/09 08:32:34.000   45.809591724   12.440169742    63.7855   1   7   0.0002   0.0002   0.0005  -0.0001  -0.0002   0.0002   0.00   22.8
2021/01/09 08:32:35.000   45.809591724   12.440169742    63.7856   1   7   0.0002   0.0002   0.0005  -0.0001  -0.0002   0.0002   0.00   22.8
2021/01/09 08:32:36.000   45.809591724   12.440169742    63.7855   1   7   0.0002   0.0002   0.0005  -0.0001  -0.0002   0.0002   0.00   22.9
2021/01/09 08:32:37.000   45.809591724   12.440169742    63.7855   1   7   0.0002   0.0002   0.0005  -0.0001  -0.0002   0.0002   0.00   22.9
2021/01/09 08:32:38.000   45.809591724   12.440169742    63.7855   1   7   0.0002   0.0002   0.0005  -0.0001  -0.0002   0.0002   0.00   22.9
2021/01/09 08:32:39.000   45.809591724   12.440169742    63.7855   1   7   0.0002   0.0002   0.0005  -0.0001  -0.0002   0.0002   0.00   22.9
2021/01/09 08:32:40.000   45.809591724   12.440169742    63.7855   1   7   0.0002   0.0002   0.0005  -0.0001  -0.0002   0.0002   0.00   23.0
2021/01/09 08:32:41.000   45.809591724   12.440169742    63.7855   1   7   0.0002   0.0002   0.0005  -0.0001  -0.0002   0.0002   0.00   23.0
2021/01/09 08:32:42.000   45.809591724   12.440169742    63.7855   1   7   0.0002   0.0002   0.0005  -0.0001  -0.0002   0.0002   0.00   23.0
2021/01/09 08:32:43.000   45.809591724   12.440169742    63.7855   1   7   0.0002   0.0002   0.0005  -0.0001  -0.0002   0.0002   0.00   23.0
2021/01/09 08:32:44.000   45.809591725   12.440169742    63.7855   1   7   0.0002   0.0002   0.0005  -0.0001  -0.0002   0.0002   0.00   23.1
2021/01/09 08:32:45.000   45.809591725   12.440169742    63.7855   1   7   0.0002   0.0002   0.0005  -0.0001  -0.0002   0.0002   0.00   23.1
2021/01/09 08:32:46.000   45.809591725   12.440169743    63.7855   1   7   0.0002   0.0002   0.0005  -0.0001  -0.0002   0.0002   0.00   23.1
2021/01/09 08:32:47.000   45.809591725   12.440169743    63.7854   1   7   0.0002   0.0002   0.0005  -0.0001  -0.0002   0.0002   0.00   23.2
2021/01/09 08:32:48.000   45.809591725   12.440169743    63.7854   1   7   0.0002   0.0002   0.0005  -0.0001  -0.0002   0.0002   0.00   23.2
2021/01/09 08:32:49.000   45.809591725   12.440169743    63.7854   1   7   0.0002   0.0002   0.0005  -0.0001  -0.0002   0.0002   0.00   23.2
2021/01/09 08:32:50.000   45.809591725   12.440169743    63.7854   1   7   0.0002   0.0002   0.0005  -0.0001  -0.0002   0.0002   0.00   23.3
2021/01/09 08:32:51.000   45.809591725   12.440169743    63.7854   1   7   0.0002   0.0002   0.0005  -0.0001  -0.0002   0.0002   0.00   23.3
2021/01/09 08:32:52.000   45.809591725   12.440169743    63.7854   1   7   0.0002   0.0002   0.0005  -0.0001  -0.0002   0.0002   0.00   23.4
2021/01/09 08:32:53.000   45.809591725   12.440169743    63.7854   1   7   0.0002   0.0002   0.0005  -0.0001  -0.0002   0.0002   0.00   23.4
2021/01/09 08:32:54.000   45.809591725   12.440169743    63.7854   1   7   0.0002   0.0002   0.0005  -0.0001  -0.0002   0.0002   0.00   23.5
2021/01/09 08:32:55.000   45.809591725   12.440169743    63.7854   1   7   0.0002   0.0002   0.0005  -0.0001  -0.0002   0.0002   0.00   23.5
2021/01/09 08:32:56.000   45.809591725   12.440169743    63.7854   1   7   0.0002   0.0002   0.0005  -0.0001  -0.0002   0.0002   0.00   23.6
2021/01/09 08:32:57.000   45.809591725   12.440169743    63.7854   1   7   0.0002   0.0002   0.0005  -0.0001  -0.0002   0.0002   0.00   23.7
2021/01/09 08:32:58.000   45.809591725   12.440169743    63.7854   1   7   0.0002   0.0002   0.0005  -0.0001  -0.0002   0.0002   0.00   23.7
2021/01/09 08:32:59.000   45.809591725   12.440169744    63.7853   1   7   0.0002   0.0002   0.0005  -0.0001  -0.0002   0.0002   0.00   23.8
2021/01/09 08:33:00.000   45.809591725   12.440169744    63.7853   1   7   0.0002   0.0002   0.0005  -0.0001  -0.0002   0.0002   0.00   23.9
2021/01/09 08:33:01.000   45.809591725   12.440169744    63.7853   1   7   0.0002   0.0002   0.0005  -0.0001  -0.0002   0.0002   0.00   23.9
2021/01/09 08:33:02.000   45.809591725   12.440169744    63.7853   1   7   0.0002   0.0002   0.0005  -0.0001  -0.0002   0.0002   0.00   24.0
2021/01/09 08:33:03.000   45.809591725   12.440169744    63.7853   1   7   0.0002   0.0002   0.0005  -0.0001  -0.0002   0.0002   0.00   24.0
2021/01/09 08:33:04.000   45.809591725   12.440169744    63.7853   1   7   0.0002   0.0002   0.0005  -0.0001  -0.0002   0.0002   0.00   24.0
2021/01/09 08:33:05.000   45.809591725   12.440169744    63.7853   1   7   0.0002   0.0002   0.0005  -0.0001  -0.0002   0.0002   0.00   24.1
2021/01/09 08:33:06.000   45.809591725   12.440169744    63.7853   1   7   0.0002   0.0002   0.0005  -0.0001  -0.0002   0.0002   0.00   24.1
2021/01/09 08:33:07.000   45.809591725   12.440169744    63.7853   1   7   0.0002   0.0002   0.0005  -0.0001  -0.0002   0.0002   0.00   24.1
2021/01/09 08:33:08.000   45.809591726   12.440169744    63.7853   1   7   0.0002   0.0002   0.0005  -0.0001  -0.0002   0.0002   0.00   24.2
2021/01/09 08:33:09.000   45.809591726   12.440169744    63.7853   1   7   0.0002   0.0002   0.0005  -0.0001  -0.0002   0.0002   0.00   24.2
2021/01/09 08:33:10.000   45.809591726   12.440169744    63.7853   1   7   0.0002   0.0002   0.0005  -0.0001  -0.0002   0.0002   0.00   24.3
2021/01/09 08:33:11.000   45.809591726   12.440169745    63.7852   1   7   0.0002   0.0002   0.0005  -0.0001  -0.0002   0.0002   0.00   24.3
2021/01/09 08:33:12.000   45.809591726   12.440169745    63.7852   1   7   0.0002   0.0002   0.0005  -0.0001  -0.0002   0.0002   0.00   24.3
2021/01/09 08:33:13.000   45.809591726   12.440169745    63.7852   1   7   0.0002   0.0002   0.0005  -0.0001  -0.0002   0.0002   0.00   24.4
2021/01/09 08:33:14.000   45.809591726   12.440169745    63.7852   1   7   0.0002   0.0002   0.0005  -0.0001  -0.0002   0.0002   0.00   24.4
2021/01/09 08:33:15.000   45.809591726   12.440169745    63.7852   1   7   0.0002   0.0002   0.0005  -0.0001  -0.0002   0.0002   0.00   24.4
2021/01/09 08:33:16.000   45.809591726   12.440169745    63.7852   1   7   0.0002   0.0002   0.0005  -0.0001  -0.0002   0.0002   0.00   24.4
2021/01/09 08:33:17.000   45.809591726   12.440169745    63.7852   1   7   0.0002   0.0002   0.0005  -0.0001  -0.0002   0.0002   0.00   24.5
2021/01/09 08:33:18.000   45.809591726   12.440169745    63.7852   1   7   0.0002   0.0002   0.0005  -0.0001  -0.0002   0.0002   0.00   24.5
2021/01/09 08:33:19.000   45.809591726   12.440169745    63.7852   1   7   0.0002   0.0002   0.0005  -0.0001  -0.0002   0.0002   0.00   24.5
2021/01/09 08:33:20.000   45.809591726   12.440169745    63.7852   1   7   0.0002   0.0002   0.0005  -0.0001  -0.0002   0.0002   0.00   24.6
2021/01/09 08:33:21.000   45.809591726   12.440169745    63.7852   1   7   0.0002   0.0002   0.0005  -0.0001  -0.0002   0.0002   0.00   24.6
2021/01/09 08:33:22.000   45.809591726   12.440169745    63.7851   1   7   0.0002   0.0002   0.0005  -0.0001  -0.0002   0.0002   0.00   24.7
2021/01/09 08:33:23.000   45.809591726   12.440169745    63.7851   1   7   0.0002   0.0002   0.0005  -0.0001  -0.0002   0.0002   0.00   24.7
2021/01/09 08:33:24.000   45.809591726   12.440169745    63.7851   1   7   0.0002   0.0002   0.0005  -0.0001  -0.0002   0.0002   0.00   24.7
2021/01/09 08:33:25.000   45.809591726   12.440169746    63.7851   1   7   0.0002   0.0002   0.0005  -0.0001  -0.0002   0.0002   0.00   24.8
2021/01/09 08:33:26.000   45.809591726   12.440169746    63.7851   1   7   0.0002   0.0002   0.0005  -0.0001  -0.0002   0.0002   0.00   24.8
2021/01/09 08:33:27.000   45.809591726   12.440169746    63.7851   1   7   0.0002   0.0002   0.0005  -0.0001  -0.0002   0.0002   0.00   24.8
2021/01/09 08:33:28.000   45.809591726   12.440169746    63.7851   1   7   0.0002   0.0002   0.0005  -0.0001  -0.0002   0.0002   0.00   24.9
2021/01/09 08:33:29.000   45.809591727   12.440169746    63.7851   1   7   0.0002   0.0002   0.0005  -0.0001  -0.0002   0.0002   0.00   24.9
2021/01/09 08:33:30.000   45.809591727   12.440169746    63.7851   1   7   0.0002   0.0002   0.0005  -0.0001  -0.0002   0.0002   0.00   25.0
2021/01/09 08:33:31.000   45.809591727   12.440169746    63.7851   1   7   0.0002   0.0002   0.0005  -0.0001  -0.0002   0.0002   0.00   25.0
2021/01/09 08:33:32.000   45.809591727   12.440169746    63.7851   1   7   0.0002   0.0002   0.0005  -0.0001  -0.0002   0.0002   0.00   25.1
2021/01/09 08:33:33.000   45.809591727   12.440169746    63.7850   1   7   0.0002   0.0002   0.0005  -0.0001  -0.0002   0.0002   0.00   25.1
2021/01/09 08:33:34.000   45.809591727   12.440169746    63.7850   1   7   0.0002   0.0002   0.0005  -0.0001  -0.0002   0.0002   0.00   25.2
2021/01/09 08:33:35.000   45.809591727   12.440169746    63.7850   1   7   0.0002   0.0002   0.0005  -0.0001  -0.0002   0.0002   0.00   25.2
2021/01/09 08:33:36.000   45.809591727   12.440169746    63.7850   1   7   0.0002   0.0002   0.0005  -0.0001  -0.0002   0.0002   0.00   25.2
2021/01/09 08:33:37.000   45.809591727   12.440169746    63.7850   1   7   0.0002   0.0002   0.0005  -0.0001  -0.0002   0.0002   0.00   25.3
2021/01/09 08:33:38.000   45.809591727   12.440169746    63.7850   1   7   0.0002   0.0002   0.0005  -0.0001  -0.0002   0.0002   0.00   25.3
2021/01/09 08:33:39.000   45.809591727   12.440169747    63.7850   1   7   0.0002   0.0002   0.0005  -0.0001  -0.0002   0.0002   0.00   25.4
2021/01/09 08:33:40.000   45.809591727   12.440169747    63.7850   1   7   0.0002   0.0002   0.0005  -0.0001  -0.0002   0.0002   0.00   25.4
2021/01/09 08:33:41.000   45.809591727   12.440169747    63.7850   1   7   0.0002   0.0002   0.0005  -0.0001  -0.0002   0.0002   0.00   25.4
2021/01/09 08:33:42.000   45.809591727   12.440169747    63.7850   1   7   0.0002   0.0002   0.0005  -0.0001  -0.0002   0.0002   0.00   25.4
2021/01/09 08:33:43.000   45.809591727   12.440169747    63.7850   1   7   0.0002   0.0002   0.0005  -0.0001  -0.0002   0.0002   0.00   25.4
2021/01/09 08:33:44.000   45.809591727   12.440169747    63.7849   1   7   0.0002   0.0002   0.0005  -0.0001  -0.0002   0.0002   0.00   25.4
2021/01/09 08:33:45.000   45.809591727   12.440169747    63.7849   1   7   0.0002   0.0002   0.0005  -0.0001  -0.0002   0.0002   0.00   25.4
2021/01/09 08:33:46.000   45.809591727   12.440169747    63.7849   1   7   0.0002   0.0002   0.0005  -0.0001  -0.0002   0.0002   0.00   25.4
2021/01/09 08:33:47.000   45.809591727   12.440169747    63.7849   1   7   0.0002   0.0002   0.0005  -0.0001  -0.0002   0.0002   0.00   25.4
2021/01/09 08:33:48.000   45.809591727   12.440169747    63.7849   1   7   0.0002   0.0002   0.0005  -0.0001  -0.0002   0.0002   0.00   25.4
2021/01/09 08:33:49.000   45.809591728   12.440169747    63.7849   1   7   0.0002   0.0002   0.0005  -0.0001  -0.0002   0.0002   0.00   25.4
2021/01/09 08:33:50.000   45.809591728   12.440169747    63.7849   1   7   0.0002   0.0002   0.0005  -0.0001  -0.0002   0.0002   0.00   25.4
2021/01/09 08:33:51.000   45.809591728   12.440169747    63.7849   1   7   0.0002   0.0002   0.0005  -0.0001  -0.0002   0.0002   0.00   25.4
2021/01/09 08:33:52.000   45.809591728   12.440169747    63.7849   1   7   0.0002   0.0002   0.0005  -0.0001  -0.0002   0.0002   0.00   25.4
2021/01/09 08:33:53.000   45.809591728   12.440169748    63.7849   1   7   0.0002   0.0002   0.0005  -0.0001  -0.0002   0.0002   0.00   25.4
2021/01/09 08:33:54.000   45.809591728   12.440169748    63.7849   1   7   0.0002   0.0002   0.0005  -0.0001  -0.0002   0.0002   0.00   25.4
2021/01/09 08:33:55.000   45.809591728   12.440169748    63.7849   1   7   0.0002   0.0002   0.0005  -0.0001  -0.0002   0.0002   0.00   25.4
2021/01/09 08:33:56.000   45.809591728   12.440169748    63.7848   1   7   0.0002   0.0002   0.0005  -0.0001  -0.0002   0.0002   0.00   25.4
2021/01/09 08:33:57.000   45.809591728   12.440169748    63.7848   1   7   0.0002   0.0002   0.0005  -0.0001  -0.0002   0.0002   0.00   25.5
2021/01/09 08:33:58.000   45.809591728   12.440169748    63.7848   1   7   0.0002   0.0002   0.0005  -0.0001  -0.0002   0.0002   0.00   25.5
2021/01/09 08:33:59.000   45.809591728   12.440169748    63.7848   1   7   0.0002   0.0002   0.0005  -0.0001  -0.0002   0.0002   0.00   25.6
2021/01/09 08:34:00.000   45.809591728   12.440169748    63.7848   1   7   0.0002   0.0002   0.0005  -0.0001  -0.0002   0.0002   0.00   25.6
2021/01/09 08:34:01.000   45.809591728   12.440169748    63.7848   1   7   0.0002   0.0002   0.0005  -0.0001  -0.0002   0.0002   0.00   25.7
2021/01/09 08:34:02.000   45.809591728   12.440169748    63.7848   1   7   0.0002   0.0002   0.0005  -0.0001  -0.0002   0.0002   0.00   25.6
2021/01/09 08:34:03.000   45.809591728   12.440169748    63.7848   1   7   0.0002   0.0002   0.0005  -0.0001  -0.0002   0.0002   0.00   25.6
2021/01/09 08:34:04.000   45.809591728   12.440169748    63.7848   1   7   0.0002   0.0002   0.0005  -0.0001  -0.0002   0.0002   0.00   25.6
2021/01/09 08:34:05.000   45.809591728   12.440169748    63.7848   1   7   0.0002   0.0002   0.0005  -0.0001  -0.0002   0.0002   0.00   25.6
2021/01/09 08:34:06.000   45.809591729   12.440169748    63.7847   1   7   0.0002   0.0002   0.0005  -0.0001  -0.0002   0.0002   0.00   25.5
2021/01/09 08:34:07.000   45.809591729   12.440169749    63.7847   1   7   0.0002   0.0002   0.0005  -0.0001  -0.0002   0.0002   0.00   25.5
2021/01/09 08:34:08.000   45.809591729   12.440169749    63.7847   1   7   0.0002   0.0002   0.0005  -0.0001  -0.0002   0.0002   0.00   25.5
2021/01/09 08:34:09.000   45.809591729   12.440169749    63.7847   1   7   0.0002   0.0002   0.0005  -0.0001  -0.0002   0.0002   0.00   25.5
2021/01/09 08:34:10.000   45.809591729   12.440169749    63.7847   1   7   0.0002   0.0002   0.0005  -0.0001  -0.0002   0.0002   0.00   25.5
2021/01/09 08:34:11.000   45.809591729   12.440169749    63.7847   1   7   0.0002   0.0002   0.0005  -0.0001  -0.0002   0.0002   0.00   25.5
2021/01/09 08:34:12.000   45.809591729   12.440169749    63.7847   1   7   0.0002   0.0002   0.0005  -0.0001  -0.0002   0.0002   0.00   25.5
2021/01/09 08:34:13.000   45.809591729   12.440169749    63.7847   1   7   0.0002   0.0002   0.0005  -0.0001  -0.0002   0.0002   0.00   25.5
2021/01/09 08:34:14.000   45.809591729   12.440169749    63.7847   1   7   0.0002   0.0002   0.0005  -0.0001  -0.0002   0.0002   0.00   25.4
2021/01/09 08:34:15.000   45.809591729   12.440169749    63.7847   1   7   0.0002   0.0002   0.0005  -0.0001  -0.0002   0.0002   0.00   25.4
2021/01/09 08:34:16.000   45.809591729   12.440169749    63.7846   1   7   0.0002   0.0002   0.0005  -0.0001  -0.0002   0.0002   0.00   25.4
2021/01/09 08:34:17.000   45.809591729   12.440169749    63.7846   1   7   0.0002   0.0002   0.0005  -0.0001  -0.0002   0.0002   0.00   25.4
2021/01/09 08:34:18.000   45.809591729   12.440169749    63.7846   1   7   0.0002   0.0002   0.0005  -0.0001  -0.0002   0.0002   0.00   25.4
2021/01/09 08:34:19.000   45.809591729   12.440169749    63.7846   1   7   0.0002   0.0002   0.0005  -0.0001  -0.0002   0.0002   0.00   25.4
2021/01/09 08:34:20.000   45.809591729   12.440169749    63.7846   1   7   0.0002   0.0002   0.0005  -0.0001  -0.0002   0.0002   0.00   25.3
2021/01/09 08:34:21.000   45.809591729   12.440169750    63.7846   1   7   0.0002   0.0002   0.0005  -0.0001  -0.0002   0.0002   0.00   25.3
2021/01/09 08:34:22.000   45.809591729   12.440169750    63.7846   1   7   0.0002   0.0002   0.0005  -0.0001  -0.0002   0.0002   0.00   25.3
2021/01/09 08:34:23.000   45.809591730   12.440169750    63.7846   1   7   0.0002   0.0002   0.0005  -0.0001  -0.0002   0.0002   0.00   25.2
2021/01/09 08:34:24.000   45.809591730   12.440169750    63.7846   1   7   0.0002   0.0002   0.0005  -0.0001  -0.0002   0.0002   0.00   25.2
2021/01/09 08:34:25.000   45.809591730   12.440169750    63.7846   1   7   0.0002   0.0002   0.0005  -0.0001  -0.0002   0.0002   0.00   25.2
2021/01/09 08:34:26.000   45.809591730   12.440169750    63.7845   1   7   0.0002   0.0002   0.0005  -0.0001  -0.0002   0.0002   0.00   25.2
2021/01/09 08:34:27.000   45.809591730   12.440169750    63.7845   1   7   0.0002   0.0002   0.0005  -0.0001  -0.0002   0.0002   0.00   25.2
2021/01/09 08:34:28.000   45.809591730   12.440169750    63.7845   1   7   0.0002   0.0002   0.0005  -0.0001  -0.0002   0.0002   0.00   25.2
2021/01/09 08:34:29.000   45.809591730   12.440169750    63.7845   1   7   0.0002   0.0002   0.0005  -0.0001  -0.0002   0.0002   0.00   25.2
2021/01/09 08:34:30.000   45.809591730   12.440169750    63.7845   1   7   0.0002   0.0002   0.0005  -0.0001  -0.0002   0.0002   0.00   25.2
2021/01/09 08:34:31.000   45.809591730   12.440169750    63.7845   1   7   0.0002   0.0002   0.0005  -0.0001  -0.0002   0.0002   0.00   25.2
2021/01/09 08:34:32.000   45.809591730   12.440169750    63.7845   1   7   0.0002   0.0002   0.0005  -0.0001  -0.0002   0.0002   0.00   25.2
2021/01/09 08:34:33.000   45.809591730   12.440169750    63.7845   1   7   0.0002   0.0002   0.0005  -0.0001  -0.0002   0.0002   0.00   25.2
2021/01/09 08:34:34.000   45.809591730   12.440169750    63.7845   1   7   0.0002   0.0002   0.0005  -0.0001  -0.0002   0.0002   0.00   25.2
2021/01/09 08:34:35.000   45.809591730   12.440169750    63.7845   1   7   0.0002   0.0002   0.0005  -0.0001  -0.0002   0.0002   0.00   25.2
2021/01/09 08:34:36.000   45.809591730   12.440169750    63.7844   1   7   0.0002   0.0002   0.0005  -0.0001  -0.0002   0.0002   0.00   25.2
2021/01/09 08:34:37.000   45.809591730   12.440169750    63.7844   1   7   0.0002   0.0002   0.0005  -0.0001  -0.0002   0.0002   0.00   25.2
2021/01/09 08:34:38.000   45.809591730   12.440169751    63.7844   1   7   0.0002   0.0002   0.0005  -0.0001  -0.0002   0.0002   0.00   25.2
2021/01/09 08:34:39.000   45.809591730   12.440169751    63.7844   1   7   0.0002   0.0002   0.0005  -0.0001  -0.0002   0.0002   0.00   25.1
2021/01/09 08:34:40.000   45.809591731   12.440169751    63.7844   1   7   0.0002   0.0002   0.0005  -0.0001  -0.0002   0.0002   0.00   25.1
2021/01/09 08:34:41.000   45.809591731   12.440169751    63.7844   1   7   0.0002   0.0002   0.0005  -0.0001  -0.0002   0.0002   0.00   25.1
2021/01/09 08:34:42.000   45.809591731   12.440169751    63.7844   1   7   0.0002   0.0002   0.0005  -0.0001  -0.0002   0.0002   0.00   25.1
2021/01/09 08:34:43.000   45.809591731   12.440169751    63.7844   1   7   0.0002   0.0002   0.0005  -0.0001  -0.0002   0.0002   0.00   25.1
2021/01/09 08:34:44.000   45.809591731   12.440169751    63.7843   1   7   0.0002   0.0002   0.0005  -0.0001  -0.0002   0.0002   0.00   25.0
2021/01/09 08:34:45.000   45.809591731   12.440169751    63.7843   1   7   0.0002   0.0002   0.0005  -0.0001  -0.0002   0.0002   0.00   25.0
2021/01/09 08:34:46.000   45.809591731   12.440169751    63.7843   1   7   0.0002   0.0002   0.0005  -0.0001  -0.0002   0.0002   0.00   25.0
2021/01/09 08:34:47.000   45.809591731   12.440169751    63.7843   1   7   0.0002   0.0002   0.0005  -0.0001  -0.0002   0.0002   0.00   25.0
2021/01/09 08:34:48.000   45.809591731   12.440169751    63.7843   1   7   0.0002   0.0002   0.0005  -0.0001  -0.0002   0.0002   0.00   25.0
2021/01/09 08:34:49.000   45.809591731   12.440169751    63.7843   1   7   0.0002   0.0002   0.0005  -0.0001  -0.0002   0.0002   0.00   24.9
2021/01/09 08:34:50.000   45.809591731   12.440169751    63.7843   1   7   0.0002   0.0002   0.0005  -0.0001  -0.0002   0.0002   0.00   24.9
2021/01/09 08:34:51.000   45.809591731   12.440169751    63.7843   1   7   0.0002   0.0002   0.0005  -0.0001  -0.0002   0.0002   0.00   24.9
2021/01/09 08:34:52.000   45.809591731   12.440169751    63.7843   1   7   0.0002   0.0002   0.0005  -0.0001  -0.0002   0.0002   0.00   24.9
2021/01/09 08:34:53.000   45.809591731   12.440169751    63.7842   1   7   0.0002   0.0002   0.0005  -0.0001  -0.0002   0.0002   0.00   24.9
2021/01/09 08:34:54.000   45.809591731   12.440169751    63.7842   1   7   0.0002   0.0002   0.0005  -0.0001  -0.0002   0.0002   0.00   24.9
2021/01/09 08:34:55.000   45.809591731   12.440169752    63.7842   1   7   0.0002   0.0002   0.0005  -0.0001  -0.0002   0.0002   0.00   24.8
2021/01/09 08:34:56.000   45.809591731   12.440169752    63.7842   1   7   0.0002   0.0002   0.0005  -0.0001  -0.0002   0.0002   0.00   24.8
2021/01/09 08:34:57.000   45.809591732   12.440169752    63.7842   1   7   0.0002   0.0002   0.0005  -0.0001  -0.0002   0.0002   0.00   24.8
2021/01/09 08:34:58.000   45.809591732   12.440169752    63.7842   1   7   0.0002   0.0002   0.0005  -0.0001  -0.0002   0.0002   0.00   24.8
2021/01/09 08:34:59.000   45.809591732   12.440169752    63.7842   1   7   0.0002   0.0002   0.0005  -0.0001  -0.0002   0.0002   0.00   24.8
2021/01/09 08:35:00.000   45.809591732   12.440169752    63.7842   1   7   0.0002   0.0002   0.0005  -0.0001  -0.0002   0.0002   0.00   24.8
2021/01/09 08:35:01.000   45.809591732   12.440169752    63.7841   1   7   0.0002   0.0002   0.0005  -0.0001  -0.0002   0.0002   0.00   24.8
2021/01/09 08:35:02.000   45.809591732   12.440169752    63.7841   1   7   0.0002   0.0002   0.0005  -0.0001  -0.0002   0.0002   0.00   24.7
2021/01/09 08:35:03.000   45.809591732   12.440169752    63.7841   1   7   0.0002   0.0002   0.0005  -0.0001  -0.0002   0.0002   0.00   24.7
2021/01/09 08:35:04.000   45.809591732   12.440169752    63.7841   1   7   0.0002   0.0002   0.0005  -0.0001  -0.0002   0.0002   0.00   24.7
2021/01/09 08:35:05.000   45.809591732   12.440169752    63.7841   1   7   0.0002   0.0002   0.0005  -0.0001  -0.0002   0.0002   0.00   24.7
2021/01/09 08:35:06.000   45.809591732   12.440169752    63.7841   1   7   0.0002   0.0002   0.0005  -0.0001  -0.0002   0.0002   0.00   24.7
